[
    {
        "type": "work",
        "title": "Data Engineer",
        "skills": ["Google Cloud Platform (GCP)", "Python", "Data Cleansing"],
        "startDate": "2022-09-15",
        "endDate": "2022-12-30",
        "location": {"city": "Toronto", "state": "Ontario"},
        "company": "Tealbook", 
        "logoURL": "tealbook_logo.jpg"
    },
    {
        "type": "work",
        "title": "Data Engineer",
        "skills": ["Google Cloud Platform (GCP)", "Python", "Feature Modelling"],
        "startDate": "2022-01-15",
        "endDate": "2022-04-30",
        "location": {"city": "Toronto", "state": "Ontario"},
        "company": "Tealbook",
        "logoURL": "tealbook_logo.jpg"
    },
    {
        "type": "work",
        "title": "FullStack Developer",
        "skills": ["Test Driven Development (TDD)", "Product Design"],
        "startDate": "2021-05-15",
        "endDate": "2021-08-30",
        "location": {"city": "Toronto", "state": "Ontario"},
        "company": "PartnerStack",
        "logoURL": "partnerstack_logo.jpg"
    },
    {
        "type": "work",
        "title": "Web Developer",
        "skills": ["React.js", "MySQL", "Relational Modelling"],
        "startDate": "2020-09-15",
        "endDate": "2020-12-30",
        "location": {"city": "Toronto", "state": "Ontario"},
        "company": "Horizn",
        "logoURL": "horizon_studios_canada_logo.jpg"
    },
    {
        "type": "work",
        "title": "PHP Developer",
        "skills": ["MySQL", "API", "Relational Modelling"],
        "startDate": "2020-01-15",
        "endDate": "2020-04-30",
        "location": {"city": "Toronto", "state": "Ontario"},
        "company": "Venngo",
        "logoURL": "venngo_logo.jpg"
    },
    {
        "type": "work",
        "title": "IT Technical Developer",
        "skills": ["SQL", "MySQL", "Relational Modelling"],
        "startDate": "2019-05-15",
        "endDate": "2019-08-30",
        "location": {"city": "Toronto", "state": "Ontario"},
        "company": "City of Toronto",
        "logoURL": "city_of_toronto_logo.jpg"
    }
]
  